0.509,1,$OXSIG,99,*4A
1.115,2,$OXSIG,99,*4A
1.377,3,$GPGGA,193709.00,6027.78496,N,00519.73816,E,1,05,1.54,100.9,M,43.8,M,,*5A
1.733,4,$OXSIG,99,*4A
2.105,5,$GPGGA,193710.00,6027.78481,N,00519.73818,E,1,05,1.54,100.6,M,43.8,M,,*55
2.338,6,$OXSIG,99,*4A
2.952,7,$OXSIG,100,*7B
3.214,8,$GPGGA,193711.00,6027.78475,N,00519.73819,E,1,05,1.54,100.5,M,43.8,M,,*5D
3.558,9,$OXSIG,99,*4A
4.159,10,$OXSIG,143,*7C
4.214,11,$GPGGA,193712.00,6027.78473,N,00519.73834,E,1,05,1.54,100.2,M,43.8,M,,*50
4.778,12,$OXSIG,99,*4A
5.174,13,$GPGGA,193713.00,6027.78484,N,00519.73874,E,1,05,1.54,100.0,M,43.8,M,,*5F
5.383,14,$OXSIG,100,*7B
5.991,15,$OXSIG,99,*4A
6.185,16,$GPGGA,193714.00,6027.78480,N,00519.73856,E,1,05,1.54,100.1,M,43.8,M,,*5D
6.609,17,$OXSIG,99,*4A
7.209,18,$OXSIG,100,*7B
7.245,19,$GPGGA,193715.00,6027.78473,N,00519.73855,E,1,05,1.54,99.9,M,43.8,M,,*6A
7.841,20,$OXSIG,97,*44
8.448,21,$OXSIG,100,*7B
8.574,22,$GPGGA,193716.00,6027.78466,N,00519.73847,E,1,05,1.54,99.6,M,43.8,M,,*61
9.057,23,$OXSIG,99,*4A
9.605,24,$GPGGA,193717.00,6027.78475,N,00519.73870,E,1,05,1.54,99.7,M,43.8,M,,*67
9.658,25,$OXSIG,134,*7C
10.268,26,$OXSIG,105,*7E
10.495,27,$GPGGA,193718.00,6027.78461,N,00519.73857,E,1,05,1.54,99.8,M,43.8,M,,*67
10.880,28,$OXSIG,100,*7B
11.453,29,$GPGGA,193719.00,6027.78457,N,00519.73850,E,1,05,1.54,100.1,M,43.8,M,,*5C
11.488,30,$OXSIG,100,*7B
12.095,31,$OXSIG,99,*4A
12.357,32,$GPGGA,193720.00,6027.78458,N,00519.73840,E,1,05,1.54,100.2,M,43.8,M,,*5B
12.733,33,$OXSIG,99,*4A
13.338,34,$OXSIG,100,*7B
13.579,35,$GPGGA,193721.00,6027.78466,N,00519.73861,E,1,05,1.54,99.9,M,43.8,M,,*6E
13.942,36,$OXSIG,99,*4A
14.548,37,$OXSIG,99,*4A
14.592,38,$GPGGA,193722.00,6027.78465,N,00519.73869,E,1,05,1.54,99.6,M,43.8,M,,*69
15.150,39,$OXSIG,151,*7F
15.484,40,$GPGGA,193723.00,6027.78463,N,00519.73857,E,1,05,1.54,99.1,M,43.8,M,,*64
15.759,41,$OXSIG,102,*79
16.360,42,$OXSIG,100,*7B
16.385,43,$GPGGA,193724.00,6027.78457,N,00519.73843,E,1,05,1.54,98.7,M,43.8,M,,*66
16.964,44,$OXSIG,99,*4A
17.278,45,$GPGGA,193725.00,6027.78451,N,00519.73802,E,1,05,1.54,99.2,M,43.8,M,,*60
17.574,46,$OXSIG,101,*7A
18.176,47,$OXSIG,101,*7A
18.227,48,$GPGGA,193726.00,6027.78445,N,00519.73766,E,1,05,1.54,99.3,M,43.8,M,,*6A
18.784,49,$OXSIG,99,*4A
19.233,50,$GPGGA,193727.00,6027.78452,N,00519.73761,E,1,05,1.54,99.5,M,43.8,M,,*6C
19.388,51,$OXSIG,99,*4A
19.998,52,$OXSIG,100,*7B
20.196,53,$GPGGA,193728.00,6027.78451,N,00519.73755,E,1,05,1.54,99.7,M,43.8,M,,*65
20.618,54,$OXSIG,156,*78
21.219,55,$OXSIG,105,*7E
21.247,56,$GPGGA,193729.00,6027.78489,N,00519.73839,E,1,05,1.54,100.3,M,43.8,M,,*51
21.820,57,$OXSIG,197,*75
22.206,58,$GPGGA,193730.00,6027.78487,N,00519.73854,E,1,05,1.54,100.5,M,43.8,M,,*5A
22.423,59,$OXSIG,140,*7F
23.034,60,$OXSIG,114,*7E
23.326,61,$GPGGA,193731.00,6027.78491,N,00519.73869,E,1,05,1.54,100.8,M,43.8,M,,*5F
23.648,62,$OXSIG,111,*7B
24.258,63,$OXSIG,114,*7E
24.287,64,$GPGGA,193732.00,6027.78451,N,00519.73864,E,1,05,1.54,100.3,M,43.8,M,,*56
24.860,65,$OXSIG,115,*7F
25.225,66,$GPGGA,193733.00,6027.78428,N,00519.73854,E,1,05,1.54,99.9,M,43.8,M,,*61
25.462,67,$OXSIG,115,*7F
26.066,68,$OXSIG,160,*7D
26.412,69,$GPGGA,193734.00,6027.78401,N,00519.73849,E,1,05,1.54,99.5,M,43.8,M,,*6D
26.668,70,$OXSIG,117,*7D
27.278,71,$OXSIG,204,*7C
27.345,72,$GPGGA,193735.00,6027.78382,N,00519.73849,E,1,05,1.54,98.9,M,43.8,M,,*6D
27.892,73,$OXSIG,156,*78
28.302,74,$GPGGA,193736.00,6027.78350,N,00519.73832,E,1,05,1.54,97.9,M,43.8,M,,*62
28.518,75,$OXSIG,154,*7A
29.128,76,$OXSIG,165,*78
29.288,77,$GPGGA,193737.00,6027.78294,N,00519.73810,E,1,05,1.54,97.2,M,43.8,M,,*61
29.764,78,$OXSIG,174,*78
30.382,79,$OXSIG,215,*7C
30.519,80,$GPGGA,193738.00,6027.78254,N,00519.73786,E,1,05,1.54,96.9,M,43.8,M,,*68
31.001,81,$OXSIG,184,*77
31.608,82,$OXSIG,161,*7C
31.668,83,$GPGGA,193739.00,6027.78169,N,00519.73746,E,1,05,1.54,96.9,M,43.8,M,,*68
32.218,84,$OXSIG,172,*7E
32.577,85,$GPGGA,193740.00,6027.78036,N,00519.73571,E,1,05,1.54,96.7,M,43.8,M,,*65
32.828,86,$OXSIG,168,*75
33.438,87,$OXSIG,166,*7B
33.536,88,$GPGGA,193741.00,6027.77766,N,00519.73354,E,1,05,1.54,94.4,M,43.8,M,,*69
34.049,89,$OXSIG,168,*75
34.668,90,$OXSIG,159,*77
35.008,91,$GPGGA,193742.00,6027.77604,N,00519.73171,E,1,05,9.17,93.7,M,43.8,M,,*61
35.308,92,$OXSIG,158,*76
35.930,93,$OXSIG,145,*7A
36.252,94,$GPGGA,193743.00,6027.77437,N,00519.73001,E,1,04,9.17,92.9,M,43.8,M,,*6A
36.558,95,$OXSIG,173,*7F
37.178,96,$OXSIG,164,*79
37.530,97,$GPGGA,193744.00,6027.77285,N,00519.72894,E,1,04,9.16,92.1,M,43.8,M,,*6E
37.782,98,$OXSIG,150,*7E
38.398,99,$OXSIG,147,*78
38.516,100,$GPGGA,193745.00,6027.77204,N,00519.72824,E,1,04,9.15,91.7,M,43.8,M,,*6B
39.001,101,$OXSIG,147,*78
39.484,102,$GPGGA,193746.00,6027.77122,N,00519.72828,E,1,04,9.14,90.5,M,43.8,M,,*61
39.602,103,$OXSIG,148,*77
40.218,104,$OXSIG,144,*7B
40.331,105,$GPGGA,193747.00,6027.77034,N,00519.72801,E,1,04,9.14,89.0,M,43.8,M,,*60
40.819,106,$OXSIG,146,*79
41.237,107,$GPGGA,193748.00,6027.76950,N,00519.72742,E,1,04,9.13,87.1,M,43.8,M,,*65
41.428,108,$OXSIG,153,*7D
42.039,109,$OXSIG,146,*79
42.161,110,$GPGGA,193749.00,6027.76842,N,00519.72721,E,1,04,9.12,86.2,M,43.8,M,,*60
42.648,111,$OXSIG,162,*7F
43.150,112,$GPGGA,193750.00,6027.76739,N,00519.72706,E,1,04,9.12,83.9,M,43.8,M,,*60
43.249,113,$OXSIG,152,*7C
43.851,114,$OXSIG,142,*7D
43.995,115,$GPGGA,193751.00,6027.76630,N,00519.72877,E,1,05,9.11,82.5,M,43.8,M,,*6F
44.468,116,$OXSIG,144,*7B
45.088,117,$OXSIG,151,*7F
45.169,118,$GPGGA,193752.00,6027.76513,N,00519.72898,E,1,05,9.10,80.0,M,43.8,M,,*69
45.695,119,$OXSIG,153,*7D
46.088,120,$GPGGA,193753.00,6027.76399,N,00519.72959,E,1,05,9.09,76.9,M,43.8,M,,*68
46.299,121,$OXSIG,164,*79
46.908,122,$OXSIG,149,*76
46.965,123,$GPGGA,193754.00,6027.76280,N,00519.72989,E,1,05,9.09,73.4,M,43.8,M,,*63
47.510,124,$OXSIG,152,*7C
47.964,125,$GPGGA,193755.00,6027.75976,N,00519.72922,E,1,05,1.54,66.4,M,43.8,M,,*66
48.119,126,$OXSIG,174,*78
48.728,127,$OXSIG,147,*78
49.158,128,$GPGGA,193756.00,6027.73912,N,00519.72615,E,1,05,1.54,19.4,M,43.8,M,,*62
49.348,129,$OXSIG,147,*78
49.960,130,$OXSIG,145,*7A
50.345,131,$GPGGA,193757.00,6027.72480,N,00519.72444,E,1,05,1.54,-12.9,M,43.8,M,,*49
50.568,132,$OXSIG,151,*7F
51.174,133,$OXSIG,150,*7E
51.324,134,$GPGGA,193758.00,6027.70752,N,00519.72315,E,1,05,1.54,-50.7,M,43.8,M,,*43
51.778,135,$OXSIG,149,*76
52.388,136,$OXSIG,145,*7A
52.416,137,$GPGGA,193759.00,6027.70283,N,00519.72277,E,1,05,9.05,-60.6,M,43.8,M,,*40
52.999,138,$OXSIG,146,*79
53.585,139,$GPGGA,193800.00,6027.69897,N,00519.72300,E,1,04,9.05,-69.0,M,43.8,M,,*4B
53.601,140,$OXSIG,146,*79
54.210,141,$OXSIG,149,*76
54.555,142,$GPGGA,193801.00,6027.69516,N,00519.72322,E,1,05,9.04,-77.5,M,43.8,M,,*44
54.822,143,$OXSIG,147,*78
55.438,144,$OXSIG,148,*77
55.562,145,$GPGGA,193802.00,6027.69153,N,00519.72334,E,1,05,9.03,-85.6,M,43.8,M,,*4C
56.049,146,$OXSIG,146,*79
56.653,147,$OXSIG,144,*7B
56.672,148,$GPGGA,193803.00,6027.68826,N,00519.72352,E,1,05,9.03,-93.2,M,43.8,M,,*44
57.258,149,$OXSIG,150,*7E
57.689,150,$GPGGA,193804.00,6027.68576,N,00519.72430,E,1,06,8.94,-99.2,M,43.8,M,,*4E
57.859,151,$OXSIG,142,*7D
58.461,152,$OXSIG,149,*76
58.713,153,$GPGGA,193805.00,6027.68368,N,00519.72534,E,1,05,8.93,-105.2,M,43.8,M,,*73
59.062,154,$OXSIG,151,*7F
59.673,155,$OXSIG,159,*77
59.764,156,$GPGGA,193806.00,6027.68185,N,00519.72649,E,1,05,8.93,-110.3,M,43.8,M,,*7D
60.288,157,$OXSIG,145,*7A
60.820,158,$GPGGA,193807.00,6027.67983,N,00519.72757,E,1,05,8.92,-115.5,M,43.8,M,,*71
60.889,159,$OXSIG,147,*78
61.498,160,$OXSIG,152,*7C
61.874,161,$GPGGA,193808.00,6027.67834,N,00519.72860,E,1,05,8.91,-119.3,M,43.8,M,,*71
62.100,162,$OXSIG,154,*7A
62.718,163,$OXSIG,152,*7C
62.870,164,$GPGGA,193809.00,6027.67697,N,00519.72941,E,1,05,8.91,-122.8,M,43.8,M,,*76
63.319,165,$OXSIG,146,*79
63.921,166,$OXSIG,156,*78
63.939,167,$GPGGA,193810.00,6027.67531,N,00519.72979,E,1,05,8.90,-126.8,M,43.8,M,,*7F
64.528,168,$OXSIG,141,*7E
64.981,169,$GPGGA,193811.00,6027.67404,N,00519.73039,E,1,05,8.89,-130.1,M,43.8,M,,*73
65.129,170,$OXSIG,165,*78
65.734,171,$OXSIG,145,*7A
66.037,172,$GPGGA,193812.00,6027.67265,N,00519.73097,E,1,05,8.88,-134.1,M,43.8,M,,*70
66.338,173,$OXSIG,143,*7C
66.944,174,$OXSIG,149,*76
67.061,175,$GPGGA,193813.00,6027.67125,N,00519.73158,E,1,05,8.88,-138.0,M,43.8,M,,*79
67.545,176,$OXSIG,146,*79
68.148,177,$OXSIG,156,*78
68.257,178,$GPGGA,193814.00,6027.66981,N,00519.73188,E,1,05,8.87,-141.4,M,43.8,M,,*71
68.759,179,$OXSIG,145,*7A
68.911,180,$GPGGA,193815.00,6027.66866,N,00519.73228,E,1,05,8.86,-144.6,M,43.8,M,,*77
69.360,181,$OXSIG,152,*7C
69.454,182,$GPGGA,193816.00,6027.66756,N,00519.73253,E,1,05,8.85,-147.2,M,43.8,M,,*70
69.962,183,$OXSIG,150,*7E
70.015,184,$GPGGA,193817.00,6027.66674,N,00519.73306,E,1,05,8.85,-149.0,M,43.8,M,,*7D
70.568,185,$OXSIG,168,*75
70.585,186,$GPGGA,193818.00,6027.66627,N,00519.73333,E,1,06,8.84,-150.2,M,43.8,M,,*7A
71.173,187,$OXSIG,149,*76
71.197,188,$GPGGA,193819.00,6027.66624,N,00519.73377,E,1,06,8.83,-150.2,M,43.8,M,,*7F
71.775,189,$OXSIG,151,*7F
72.036,190,$GPGGA,193820.00,6027.66709,N,00519.73424,E,1,06,8.83,-147.9,M,43.8,M,,*77
72.378,191,$OXSIG,149,*76
72.979,192,$OXSIG,144,*7B
73.024,193,$GPGGA,193821.00,6027.66828,N,00519.73498,E,1,05,8.82,-145.1,M,43.8,M,,*75
73.580,194,$OXSIG,148,*77
74.105,195,$GPGGA,193822.00,6027.66957,N,00519.73542,E,1,06,8.81,-141.9,M,43.8,M,,*75
74.181,196,$OXSIG,148,*77
74.785,197,$OXSIG,147,*78
75.027,198,$GPGGA,193823.00,6027.67034,N,00519.73558,E,1,06,8.80,-139.6,M,43.8,M,,*73
75.388,199,$OXSIG,151,*7F
75.989,200,$OXSIG,187,*74
76.029,201,$GPGGA,193824.00,6027.67126,N,00519.73573,E,1,05,8.80,-137.5,M,43.8,M,,*71
76.590,202,$OXSIG,151,*7F
77.100,203,$GPGGA,193825.00,6027.67174,N,00519.73604,E,1,05,8.79,-136.5,M,43.8,M,,*73
77.191,204,$OXSIG,154,*7A
77.793,205,$OXSIG,148,*77
78.017,206,$GPGGA,193826.00,6027.67162,N,00519.73609,E,1,05,8.78,-136.8,M,43.8,M,,*76
78.398,207,$OXSIG,149,*76
78.999,208,$OXSIG,149,*76
79.036,209,$GPGGA,193827.00,6027.67220,N,00519.73625,E,1,05,8.78,-136.3,M,43.8,M,,*77
79.600,210,$OXSIG,145,*7A
80.100,211,$GPGGA,193828.00,6027.67292,N,00519.73656,E,1,05,8.77,-134.4,M,43.8,M,,*7F
80.201,212,$OXSIG,148,*77
80.804,213,$OXSIG,147,*78
81.010,214,$GPGGA,193829.00,6027.67362,N,00519.73671,E,1,05,8.76,-132.4,M,43.8,M,,*72
81.408,215,$OXSIG,167,*7A
82.011,216,$OXSIG,154,*7A
82.051,217,$GPGGA,193830.00,6027.67486,N,00519.73694,E,1,05,8.75,-129.1,M,43.8,M,,*70
82.613,218,$OXSIG,151,*7F
83.109,219,$GPGGA,193831.00,6027.67644,N,00519.73730,E,1,06,8.75,-125.3,M,43.8,M,,*7F
83.217,220,$OXSIG,156,*78
83.820,221,$OXSIG,152,*7C
83.998,222,$GPGGA,193832.00,6027.67750,N,00519.73728,E,1,06,8.74,-122.6,M,43.8,M,,*72
84.421,223,$OXSIG,155,*7B
85.022,224,$OXSIG,153,*7D
85.052,225,$GPGGA,193833.00,6027.67835,N,00519.73740,E,1,06,8.73,-121.0,M,43.8,M,,*73
85.623,226,$OXSIG,147,*78
86.109,227,$GPGGA,193834.00,6027.67936,N,00519.73746,E,1,06,8.73,-118.8,M,43.8,M,,*72
86.228,228,$OXSIG,154,*7A
86.833,229,$OXSIG,142,*7D
87.001,230,$GPGGA,193835.00,6027.68020,N,00519.73758,E,1,06,8.72,-117.6,M,43.8,M,,*7D
87.434,231,$OXSIG,147,*78
88.035,232,$OXSIG,147,*78
88.057,233,$GPGGA,193836.00,6027.68180,N,00519.73771,E,1,06,8.71,-115.1,M,43.8,M,,*78
88.636,234,$OXSIG,158,*76
89.107,235,$GPGGA,193837.00,6027.68355,N,00519.73776,E,1,07,8.71,-112.8,M,43.8,M,,*7B
89.237,236,$OXSIG,163,*7E
89.840,237,$OXSIG,176,*7A
89.987,238,$GPGGA,193838.00,6027.68533,N,00519.73792,E,1,07,8.70,-110.9,M,43.8,M,,*7A
90.445,239,$OXSIG,199,*7B
91.050,240,$OXSIG,176,*7A
91.069,241,$GPGGA,193839.00,6027.68728,N,00519.73807,E,1,07,8.69,-108.5,M,43.8,M,,*7D
91.651,242,$OXSIG,211,*78
92.099,243,$GPGGA,193840.00,6027.68939,N,00519.73830,E,1,07,8.68,-104.2,M,43.8,M,,*73
92.252,244,$OXSIG,154,*7A
92.856,245,$OXSIG,160,*7D
92.971,246,$GPGGA,193841.00,6027.68983,N,00519.73838,E,1,06,8.68,-102.6,M,43.8,M,,*78
93.457,247,$OXSIG,151,*7F
94.058,248,$OXSIG,151,*7F
94.076,249,$GPGGA,193842.00,6027.69103,N,00519.73859,E,1,06,8.67,-100.2,M,43.8,M,,*74
94.663,250,$OXSIG,173,*7F
95.115,251,$GPGGA,193843.00,6027.69175,N,00519.73836,E,1,06,8.66,-98.2,M,43.8,M,,*4C
95.268,252,$OXSIG,153,*7D
95.869,253,$OXSIG,161,*7C
95.963,254,$GPGGA,193844.00,6027.69276,N,00519.73826,E,1,06,8.66,-96.1,M,43.8,M,,*47
96.471,255,$OXSIG,152,*7C
97.075,256,$OXSIG,144,*7B
97.084,257,$GPGGA,193845.00,6027.69334,N,00519.73722,E,1,06,8.65,-94.2,M,43.8,M,,*48
97.676,258,$OXSIG,148,*77
98.105,259,$GPGGA,193846.00,6027.69458,N,00519.73707,E,1,06,8.64,-91.8,M,43.8,M,,*4F
98.279,260,$OXSIG,145,*7A
98.880,261,$OXSIG,155,*7B
98.963,262,$GPGGA,193847.00,6027.69625,N,00519.73688,E,1,06,8.64,-88.8,M,43.8,M,,*48
99.481,263,$OXSIG,143,*7C
100.082,264,$OXSIG,167,*7A
100.091,265,$GPGGA,193848.00,6027.69795,N,00519.73709,E,1,06,8.63,-86.0,M,43.8,M,,*44
100.683,266,$OXSIG,150,*7E
101.094,267,$GPGGA,193849.00,6027.69941,N,00519.73739,E,1,06,8.62,-83.8,M,43.8,M,,*4D
101.288,268,$OXSIG,149,*76
101.888,269,$OXSIG,140,*7F
101.966,270,$GPGGA,193850.00,6027.70141,N,00519.73758,E,1,06,8.62,-80.2,M,43.8,M,,*4B
102.490,271,$OXSIG,145,*7A
103.090,272,$OXSIG,142,*7D
103.095,273,$GPGGA,193851.00,6027.70203,N,00519.73722,E,1,06,8.61,-79.5,M,43.8,M,,*40
103.691,274,$OXSIG,146,*79
104.085,275,$GPGGA,193852.00,6027.70336,N,00519.73718,E,1,06,8.60,-76.8,M,43.8,M,,*4E
104.293,276,$OXSIG,146,*79
104.894,277,$OXSIG,141,*7E
104.983,278,$GPGGA,193853.00,6027.70499,N,00519.73748,E,1,06,8.60,-73.6,M,43.8,M,,*43
105.495,279,$OXSIG,175,*79
106.096,280,$OXSIG,164,*79
106.106,281,$GPGGA,193854.00,6027.70851,N,00519.73772,E,1,06,8.59,-66.7,M,43.8,M,,*4A
106.698,282,$OXSIG,141,*7E
107.084,283,$GPGGA,193855.00,6027.71072,N,00519.73745,E,1,06,8.58,-61.4,M,43.8,M,,*42
107.299,284,$OXSIG,154,*7A
107.903,285,$OXSIG,149,*76
107.973,286,$GPGGA,193856.00,6027.71130,N,00519.73671,E,1,06,8.57,-59.4,M,43.8,M,,*44
108.505,287,$OXSIG,146,*79
109.105,288,$GPGGA,193857.00,6027.71184,N,00519.73594,E,1,06,8.57,-57.8,M,43.8,M,,*40
109.107,289,$OXSIG,149,*76
109.708,290,$OXSIG,151,*7F
110.079,291,$GPGGA,193858.00,6027.71581,N,00519.73622,E,1,07,4.77,-49.8,M,43.8,M,,*40
110.309,292,$OXSIG,152,*7C
110.911,293,$OXSIG,150,*7E
110.983,294,$GPGGA,193859.00,6027.72109,N,00519.73562,E,1,07,4.78,-36.5,M,43.8,M,,*4B
111.512,295,$OXSIG,159,*77
112.108,296,$GPGGA,193900.00,6027.72339,N,00519.73498,E,1,07,4.78,-30.8,M,43.8,M,,*48
112.113,297,$OXSIG,149,*76
112.714,298,$OXSIG,147,*78
113.081,299,$GPGGA,193901.00,6027.72675,N,00519.73518,E,1,07,4.78,-23.1,M,43.8,M,,*46
113.317,300,$OXSIG,145,*7A
113.919,301,$OXSIG,146,*79
113.979,302,$GPGGA,193902.00,6027.72984,N,00519.73573,E,1,07,4.78,-16.9,M,43.8,M,,*47
114.520,303,$OXSIG,152,*7C
115.090,304,$GPGGA,193903.00,6027.73248,N,00519.73606,E,1,08,4.78,-11.8,M,43.8,M,,*44
115.121,305,$OXSIG,142,*7D
115.722,306,$OXSIG,150,*7E
116.064,307,$GPGGA,193904.00,6027.73555,N,00519.73652,E,1,08,4.78,-5.5,M,43.8,M,,*71
116.328,308,$OXSIG,141,*7E
116.930,309,$OXSIG,153,*7D
117.013,310,$GPGGA,193905.00,6027.75121,N,00519.73879,E,1,08,1.16,25.5,M,43.8,M,,*64
117.531,311,$OXSIG,138,*70
118.081,312,$GPGGA,193906.00,6027.75701,N,00519.73963,E,1,08,1.16,36.9,M,43.8,M,,*67
118.136,313,$OXSIG,139,*71
118.737,314,$OXSIG,152,*7C
119.044,315,$GPGGA,193907.00,6027.76109,N,00519.73987,E,1,08,1.17,44.7,M,43.8,M,,*6B
119.338,316,$OXSIG,143,*7C
119.943,317,$OXSIG,142,*7D
119.992,318,$GPGGA,193908.00,6027.76332,N,00519.73976,E,1,08,1.17,48.9,M,43.8,M,,*62
120.544,319,$OXSIG,153,*7D
121.086,320,$GPGGA,193909.00,6027.76495,N,00519.73996,E,1,08,1.17,52.2,M,43.8,M,,*67
121.154,321,$OXSIG,145,*7A
121.755,322,$OXSIG,143,*7C
122.035,323,$GPGGA,193910.00,6027.76695,N,00519.74009,E,1,08,1.17,56.0,M,43.8,M,,*63
122.358,324,$OXSIG,165,*78
122.963,325,$OXSIG,146,*79
123.004,326,$GPGGA,193911.00,6027.76800,N,00519.74006,E,1,08,1.17,57.7,M,43.8,M,,*69
123.564,327,$OXSIG,144,*7B
124.084,328,$GPGGA,193912.00,6027.76886,N,00519.74004,E,1,08,1.17,59.7,M,43.8,M,,*68
124.165,329,$OXSIG,153,*7D
124.769,330,$OXSIG,140,*7F
125.021,331,$GPGGA,193913.00,6027.76984,N,00519.73990,E,1,08,1.17,61.1,M,43.8,M,,*64
125.370,332,$OXSIG,145,*7A
125.972,333,$OXSIG,144,*7B
126.010,334,$GPGGA,193914.00,6027.77083,N,00519.73944,E,1,08,1.17,62.0,M,43.8,M,,*67
126.573,335,$OXSIG,137,*7F
127.080,336,$GPGGA,193915.00,6027.77154,N,00519.73936,E,1,08,1.17,63.5,M,43.8,M,,*6C
127.174,337,$OXSIG,140,*7F
127.775,338,$OXSIG,170,*7C
128.038,339,$GPGGA,193916.00,6027.77184,N,00519.73916,E,1,08,1.17,64.3,M,43.8,M,,*61
128.378,340,$OXSIG,141,*7E
128.981,341,$OXSIG,138,*70
129.018,342,$GPGGA,193917.00,6027.77227,N,00519.73913,E,1,08,1.17,64.8,M,43.8,M,,*64
129.582,343,$OXSIG,300,*79
130.085,344,$GPGGA,193918.00,6027.77257,N,00519.73914,E,1,08,1.17,65.1,M,43.8,M,,*63
130.183,345,$OXSIG,188,*7B
130.786,346,$OXSIG,170,*7C
131.010,347,$GPGGA,193919.00,6027.77257,N,00519.73914,E,1,08,1.17,64.8,M,43.8,M,,*6A
131.388,348,$OXSIG,95,*46
131.989,349,$OXSIG,94,*47
132.025,350,$GPGGA,193920.00,6027.77291,N,00519.73918,E,1,08,1.17,65.3,M,43.8,M,,*6C
132.592,351,$OXSIG,94,*47
133.081,352,$GPGGA,193921.00,6027.77322,N,00519.73908,E,1,07,1.27,66.0,M,43.8,M,,*69
133.193,353,$OXSIG,157,*79
133.796,354,$OXSIG,109,*72
133.994,355,$GPGGA,193922.00,6027.77352,N,00519.73903,E,1,07,1.27,66.7,M,43.8,M,,*61
134.398,356,$OXSIG,91,*42
134.999,357,$OXSIG,92,*41
135.047,358,$GPGGA,193923.00,6027.77379,N,00519.73891,E,1,07,1.27,67.4,M,43.8,M,,*61
135.600,359,$OXSIG,90,*43
136.083,360,$GPGGA,193924.00,6027.77422,N,00519.73887,E,1,08,1.27,68.3,M,43.8,M,,*6F
136.204,361,$OXSIG,91,*42
136.808,362,$OXSIG,92,*41
136.988,363,$GPGGA,193925.00,6027.77449,N,00519.73882,E,1,07,1.27,69.0,M,43.8,M,,*6B
137.409,364,$OXSIG,91,*42
138.011,365,$OXSIG,96,*45
138.034,366,$GPGGA,193926.00,6027.77480,N,00519.73895,E,1,07,1.27,69.6,M,43.8,M,,*6D
138.614,367,$OXSIG,172,*7E
139.091,368,$GPGGA,193927.00,6027.77511,N,00519.73884,E,1,07,1.27,70.4,M,43.8,M,,*6F
139.215,369,$OXSIG,114,*7E
139.826,370,$OXSIG,95,*46
139.978,371,$GPGGA,193928.00,6027.77527,N,00519.73880,E,1,07,1.27,71.0,M,43.8,M,,*64
140.427,372,$OXSIG,93,*40
141.028,373,$OXSIG,95,*46
141.046,374,$GPGGA,193929.00,6027.77539,N,00519.73876,E,1,08,1.27,71.4,M,43.8,M,,*68
141.629,375,$OXSIG,93,*40
142.091,376,$GPGGA,193930.00,6027.77535,N,00519.73867,E,1,08,1.27,71.5,M,43.8,M,,*6D
142.230,377,$OXSIG,92,*41
142.831,378,$OXSIG,97,*44
142.976,379,$GPGGA,193931.00,6027.77563,N,00519.73867,E,1,08,1.27,72.2,M,43.8,M,,*6B
143.435,380,$OXSIG,93,*40
144.036,381,$OXSIG,95,*46
144.053,382,$GPGGA,193932.00,6027.77601,N,00519.73866,E,1,08,1.27,73.0,M,43.8,M,,*6D
144.638,383,$OXSIG,167,*7A
145.087,384,$GPGGA,193933.00,6027.77656,N,00519.73868,E,1,08,1.27,74.2,M,43.8,M,,*65
145.239,385,$OXSIG,184,*77
145.846,386,$OXSIG,123,*7A
145.968,387,$GPGGA,193934.00,6027.77697,N,00519.73872,E,1,07,1.27,75.0,M,43.8,M,,*68
146.447,388,$OXSIG,105,*7E
147.050,389,$OXSIG,109,*72
147.061,390,$GPGGA,193935.00,6027.77715,N,00519.73878,E,1,07,1.27,75.5,M,43.8,M,,*6D
147.651,391,$OXSIG,150,*7E
148.079,392,$GPGGA,193936.00,6027.77739,N,00519.73888,E,1,07,1.27,75.9,M,43.8,M,,*63
148.252,393,$OXSIG,191,*73
148.853,394,$OXSIG,190,*72
148.968,395,$GPGGA,193937.00,6027.77745,N,00519.73893,E,1,07,1.27,76.5,M,43.8,M,,*6C
149.454,396,$OXSIG,159,*77
150.054,397,$OXSIG,150,*7E
150.065,398,$GPGGA,193938.00,6027.77692,N,00519.73912,E,1,08,1.27,76.0,M,43.8,M,,*6A
150.656,399,$OXSIG,157,*79
151.108,400,$GPGGA,193939.00,6027.77676,N,00519.73887,E,1,07,1.27,76.6,M,43.8,M,,*65
151.268,401,$OXSIG,148,*77
151.871,402,$OXSIG,151,*7F
151.985,403,$GPGGA,193940.00,6027.77681,N,00519.73895,E,1,08,1.27,77.4,M,43.8,M,,*6C
152.472,404,$OXSIG,150,*7E
153.073,405,$OXSIG,153,*7D
153.085,406,$GPGGA,193941.00,6027.77673,N,00519.73897,E,1,08,1.17,78.0,M,43.8,M,,*6A
153.674,407,$OXSIG,163,*7E
154.083,408,$GPGGA,193942.00,6027.77684,N,00519.73846,E,1,08,1.17,78.1,M,43.8,M,,*6C
154.278,409,$OXSIG,138,*70
154.879,410,$OXSIG,157,*79
154.958,411,$GPGGA,193943.00,6027.77714,N,00519.73824,E,1,08,1.17,78.3,M,43.8,M,,*63
155.480,412,$OXSIG,175,*79
156.081,413,$OXSIG,170,*7C
156.082,414,$GPGGA,193944.00,6027.77712,N,00519.73803,E,1,08,1.17,78.4,M,43.8,M,,*60
156.682,415,$OXSIG,176,*7A
157.100,416,$GPGGA,193945.00,6027.77696,N,00519.73783,E,1,08,1.17,79.3,M,43.8,M,,*6D
157.283,417,$OXSIG,161,*7C
157.884,418,$OXSIG,164,*79
157.968,419,$GPGGA,193946.00,6027.77646,N,00519.73763,E,1,08,1.17,80.2,M,43.8,M,,*6A
158.489,420,$OXSIG,169,*74
159.091,421,$OXSIG,160,*7D
159.097,422,$GPGGA,193947.00,6027.77643,N,00519.73755,E,1,08,1.17,81.9,M,43.8,M,,*61
159.694,423,$OXSIG,166,*7B
160.098,424,$GPGGA,193948.00,6027.77638,N,00519.73747,E,1,08,1.17,83.7,M,43.8,M,,*6D
160.299,425,$OXSIG,198,*7A
160.901,426,$OXSIG,162,*7F
160.973,427,$GPGGA,193949.00,6027.77618,N,00519.73748,E,1,08,1.17,85.4,M,43.8,M,,*64
161.502,428,$OXSIG,183,*70
162.103,429,$OXSIG,152,*7C
162.106,430,$GPGGA,193950.00,6027.77596,N,00519.73754,E,1,08,1.17,87.3,M,43.8,M,,*61
162.707,431,$OXSIG,166,*7B
163.087,432,$GPGGA,193951.00,6027.77557,N,00519.73763,E,1,08,1.17,89.4,M,43.8,M,,*60
163.308,433,$OXSIG,153,*7D
163.909,434,$OXSIG,161,*7C
163.983,435,$GPGGA,193952.00,6027.77665,N,00519.73792,E,1,08,1.03,93.7,M,43.8,M,,*62
164.511,436,$OXSIG,189,*7A
165.088,437,$GPGGA,193953.00,6027.77669,N,00519.73820,E,1,08,1.41,93.8,M,43.8,M,,*60
165.112,438,$OXSIG,156,*78
165.715,439,$OXSIG,188,*7B
166.090,440,$GPGGA,193954.00,6027.77671,N,00519.73842,E,1,08,1.41,93.9,M,43.8,M,,*6B
166.318,441,$OXSIG,153,*7D
166.922,442,$OXSIG,146,*79
166.980,443,$GPGGA,193955.00,6027.77665,N,00519.73857,E,1,08,1.41,94.1,M,43.8,M,,*64
167.523,444,$OXSIG,154,*7A
168.086,445,$GPGGA,193956.00,6027.77683,N,00519.73854,E,1,08,1.03,94.5,M,43.8,M,,*6E
168.124,446,$OXSIG,150,*7E
168.726,447,$OXSIG,153,*7D
169.067,448,$GPGGA,193957.00,6027.77727,N,00519.73878,E,1,08,1.41,95.6,M,43.8,M,,*6A
169.328,449,$OXSIG,152,*7C
169.930,450,$OXSIG,186,*75
169.985,451,$GPGGA,193958.00,6027.77760,N,00519.73892,E,1,08,1.41,96.6,M,43.8,M,,*61
170.531,452,$OXSIG,194,*76
171.110,453,$GPGGA,193959.00,6027.77780,N,00519.73903,E,1,08,1.41,98.2,M,43.8,M,,*6D
171.132,454,$OXSIG,200,*78
171.736,455,$OXSIG,168,*75
172.082,456,$GPGGA,194000.00,6027.77767,N,00519.73903,E,1,08,1.41,100.5,M,43.8,M,,*51
172.338,457,$OXSIG,154,*7A
172.943,458,$OXSIG,157,*79
173.001,459,$GPGGA,194001.00,6027.77764,N,00519.73894,E,1,08,1.41,101.5,M,43.8,M,,*5D
173.544,460,$OXSIG,151,*7F
174.086,461,$GPGGA,194002.00,6027.77797,N,00519.73886,E,1,08,1.03,102.5,M,43.8,M,,*54
174.148,462,$OXSIG,146,*79
174.750,463,$OXSIG,152,*7C
175.045,464,$GPGGA,194003.00,6027.77823,N,00519.73900,E,1,08,1.03,103.2,M,43.8,M,,*5C
175.351,465,$OXSIG,151,*7F
175.951,466,$OXSIG,152,*7C
176.003,467,$GPGGA,194004.00,6027.77863,N,00519.73911,E,1,08,1.03,104.5,M,43.8,M,,*5F
176.552,468,$OXSIG,199,*7B
177.113,469,$GPGGA,194005.00,6027.77866,N,00519.73946,E,1,08,1.03,105.1,M,43.8,M,,*5C
177.153,470,$OXSIG,168,*75
177.755,471,$OXSIG,161,*7C
178.051,472,$GPGGA,194006.00,6027.77797,N,00519.74147,E,1,08,1.03,105.7,M,43.8,M,,*56
178.358,473,$OXSIG,161,*7C
178.959,474,$OXSIG,177,*7B
179.012,475,$GPGGA,194007.00,6027.77617,N,00519.74570,E,1,08,1.03,106.2,M,43.8,M,,*58
179.560,476,$OXSIG,162,*7F
180.118,477,$GPGGA,194008.00,6027.77409,N,00519.75012,E,1,08,1.03,105.8,M,43.8,M,,*53
180.166,478,$OXSIG,165,*78
180.768,479,$OXSIG,166,*7B
181.056,480,$GPGGA,194009.00,6027.77167,N,00519.75630,E,1,08,1.03,105.8,M,43.8,M,,*59
181.369,481,$OXSIG,175,*79
181.970,482,$OXSIG,160,*7D
182.027,483,$GPGGA,194010.00,6027.76861,N,00519.76313,E,1,08,1.03,105.7,M,43.8,M,,*57
182.572,484,$OXSIG,177,*7B
183.116,485,$GPGGA,194011.00,6027.76562,N,00519.77047,E,1,08,1.03,105.8,M,43.8,M,,*54
183.175,486,$OXSIG,168,*75
183.776,487,$OXSIG,160,*7D
184.049,488,$GPGGA,194012.00,6027.76277,N,00519.77810,E,1,08,1.03,106.0,M,43.8,M,,*55
184.381,489,$OXSIG,164,*79
184.982,490,$OXSIG,166,*7B
185.029,491,$GPGGA,194013.00,6027.75992,N,00519.78607,E,1,08,1.03,106.3,M,43.8,M,,*53
185.583,492,$OXSIG,181,*72
186.113,493,$GPGGA,194014.00,6027.75707,N,00519.79315,E,1,08,1.03,106.3,M,43.8,M,,*51
186.184,494,$OXSIG,184,*77
186.786,495,$OXSIG,187,*74
187.044,496,$GPGGA,194015.00,6027.75580,N,00519.79747,E,1,08,1.03,106.1,M,43.8,M,,*5C
187.388,497,$OXSIG,163,*7E
187.989,498,$OXSIG,198,*7A
188.033,499,$GPGGA,194016.00,6027.75541,N,00519.79949,E,1,08,1.03,106.6,M,43.8,M,,*55
188.590,500,$OXSIG,144,*7B
189.108,501,$GPGGA,194017.00,6027.75553,N,00519.80037,E,1,08,1.03,107.2,M,43.8,M,,*54
189.191,502,$OXSIG,155,*7B
189.794,503,$OXSIG,155,*7B
190.008,504,$GPGGA,194018.00,6027.75554,N,00519.80117,E,1,08,1.03,107.6,M,43.8,M,,*5B
190.398,505,$OXSIG,168,*75
190.999,506,$OXSIG,174,*78
191.036,507,$GPGGA,194019.00,6027.75570,N,00519.80330,E,1,08,1.03,107.7,M,43.8,M,,*5A
191.600,508,$OXSIG,168,*75
192.105,509,$GPGGA,194020.00,6027.75610,N,00519.80633,E,1,08,1.03,107.9,M,43.8,M,,*5D
192.204,510,$OXSIG,213,*7A
192.806,511,$OXSIG,212,*7B
193.021,512,$GPGGA,194021.00,6027.75628,N,00519.80765,E,1,08,1.03,109.1,M,43.8,M,,*53
193.408,513,$OXSIG,201,*79
194.010,514,$OXSIG,184,*77
194.044,515,$GPGGA,194022.00,6027.75596,N,00519.80748,E,1,08,1.03,110.8,M,43.8,M,,*58
194.611,516,$OXSIG,157,*79
195.110,517,$GPGGA,194023.00,6027.75586,N,00519.80728,E,1,08,1.03,113.4,M,43.8,M,,*51
195.214,518,$OXSIG,156,*78
195.816,519,$OXSIG,155,*7B
195.996,520,$GPGGA,194024.00,6027.75603,N,00519.80690,E,1,08,1.03,115.2,M,43.8,M,,*5A
196.418,521,$OXSIG,163,*7E
197.022,522,$OXSIG,162,*7F
197.051,523,$GPGGA,194025.00,6027.75679,N,00519.80688,E,1,08,1.03,116.4,M,43.8,M,,*5A
197.623,524,$OXSIG,165,*78
198.108,525,$GPGGA,194026.00,6027.75784,N,00519.80679,E,1,08,1.03,116.6,M,43.8,M,,*56
198.224,526,$OXSIG,167,*7A
198.826,527,$OXSIG,185,*76
199.006,528,$GPGGA,194027.00,6027.75929,N,00519.80690,E,1,08,1.03,117.7,M,43.8,M,,*59
199.429,529,$OXSIG,159,*77
200.031,530,$OXSIG,155,*7B
200.058,531,$GPGGA,194028.00,6027.76071,N,00519.80613,E,1,09,1.08,118.8,M,43.8,M,,*50
200.632,532,$OXSIG,147,*78
201.116,533,$GPGGA,194029.00,6027.76214,N,00519.80554,E,1,09,1.01,119.6,M,43.8,M,,*56
201.235,534,$OXSIG,155,*7B
201.838,535,$OXSIG,166,*7B
202.015,536,$GPGGA,194030.00,6027.76371,N,00519.80442,E,1,09,1.01,120.5,M,43.8,M,,*53
202.439,537,$OXSIG,160,*7D
203.047,538,$OXSIG,156,*78
203.073,539,$GPGGA,194031.00,6027.76546,N,00519.80278,E,1,09,1.01,121.6,M,43.8,M,,*5D
203.650,540,$OXSIG,169,*74
204.117,541,$GPGGA,194032.00,6027.76731,N,00519.80078,E,1,09,1.01,122.6,M,43.8,M,,*5D
204.251,542,$OXSIG,199,*7B
204.856,543,$OXSIG,163,*7E
204.999,544,$GPGGA,194033.00,6027.76922,N,00519.79785,E,1,09,1.06,123.0,M,43.8,M,,*53
205.457,545,$OXSIG,160,*7D
206.061,546,$OXSIG,160,*7D
206.079,547,$GPGGA,194034.00,6027.77114,N,00519.79498,E,1,09,1.06,124.0,M,43.8,M,,*50
206.663,548,$OXSIG,153,*7D
207.122,549,$GPGGA,194035.00,6027.77308,N,00519.79245,E,1,09,1.01,126.0,M,43.8,M,,*5D
207.264,550,$OXSIG,151,*7F
207.868,551,$OXSIG,154,*7A
207.988,552,$GPGGA,194036.00,6027.77473,N,00519.78930,E,1,09,1.01,127.0,M,43.8,M,,*5C
208.472,553,$OXSIG,162,*7F
209.076,554,$OXSIG,188,*7B
209.090,555,$GPGGA,194037.00,6027.77609,N,00519.78578,E,1,09,1.06,128.5,M,43.8,M,,*5F
209.678,556,$OXSIG,155,*7B
210.113,557,$GPGGA,194038.00,6027.77718,N,00519.78221,E,1,09,1.01,130.4,M,43.8,M,,*55
210.280,558,$OXSIG,151,*7F
210.891,559,$OXSIG,158,*76
210.978,560,$GPGGA,194039.00,6027.77793,N,00519.77803,E,1,09,1.01,131.5,M,43.8,M,,*52
211.492,561,$OXSIG,159,*77
212.093,562,$OXSIG,166,*7B
212.103,563,$GPGGA,194040.00,6027.77838,N,00519.77284,E,1,09,1.06,132.4,M,43.8,M,,*52
212.694,564,$OXSIG,165,*78
213.116,565,$GPGGA,194041.00,6027.77873,N,00519.76752,E,1,09,1.01,132.9,M,43.8,M,,*59
213.298,566,$OXSIG,156,*78
213.900,567,$OXSIG,161,*7C
213.979,568,$GPGGA,194042.00,6027.77940,N,00519.76305,E,1,09,1.01,133.6,M,43.8,M,,*53
214.501,569,$OXSIG,200,*78
215.102,570,$OXSIG,154,*7A
215.117,571,$GPGGA,194043.00,6027.78048,N,00519.75950,E,1,09,1.01,134.2,M,43.8,M,,*56
215.710,572,$OXSIG,190,*72
216.097,573,$GPGGA,194044.00,6027.78132,N,00519.75661,E,1,09,1.06,134.0,M,43.8,M,,*55
216.311,574,$OXSIG,163,*7E
216.914,575,$OXSIG,146,*79
216.984,576,$GPGGA,194045.00,6027.78136,N,00519.75523,E,1,08,1.06,133.9,M,43.8,M,,*5A
217.515,577,$OXSIG,141,*7E
218.097,578,$GPGGA,194046.00,6027.78137,N,00519.75503,E,1,08,1.06,133.7,M,43.8,M,,*54
218.118,579,$OXSIG,141,*7E
218.720,580,$OXSIG,145,*7A
219.071,581,$GPGGA,194047.00,6027.78151,N,00519.75513,E,1,09,1.06,134.4,M,43.8,M,,*51
219.322,582,$OXSIG,153,*7D
219.923,583,$OXSIG,194,*76
219.986,584,$GPGGA,194048.00,6027.78153,N,00519.75520,E,1,09,1.06,135.0,M,43.8,M,,*59
220.523,585,$OXSIG,158,*76
221.096,586,$GPGGA,194049.00,6027.78149,N,00519.75517,E,1,09,1.06,135.3,M,43.8,M,,*54
221.125,587,$OXSIG,149,*76
221.726,588,$OXSIG,150,*7E
222.068,589,$GPGGA,194050.00,6027.78168,N,00519.75536,E,1,09,1.06,135.8,M,43.8,M,,*57
222.327,590,$OXSIG,153,*7D
222.930,591,$OXSIG,145,*7A
222.988,592,$GPGGA,194051.00,6027.78188,N,00519.75554,E,1,09,1.06,136.3,M,43.8,M,,*54
223.531,593,$OXSIG,144,*7B
224.100,594,$GPGGA,194052.00,6027.78188,N,00519.75554,E,1,09,1.01,136.7,M,43.8,M,,*54
224.132,595,$OXSIG,154,*7A
224.733,596,$OXSIG,147,*78
225.067,597,$GPGGA,194053.00,6027.78188,N,00519.75540,E,1,09,1.01,136.9,M,43.8,M,,*5E
225.338,598,$OXSIG,143,*7C
225.939,599,$OXSIG,151,*7F
226.016,600,$GPGGA,194054.00,6027.78192,N,00519.75534,E,1,09,1.01,137.5,M,43.8,M,,*5C
226.540,601,$OXSIG,148,*77
227.097,602,$GPGGA,194055.00,6027.78199,N,00519.75538,E,1,09,1.01,138.0,M,43.8,M,,*50
227.145,603,$OXSIG,144,*7B
227.746,604,$OXSIG,148,*77
228.060,605,$GPGGA,194056.00,6027.78207,N,00519.75547,E,1,09,1.01,138.7,M,43.8,M,,*58
228.348,606,$OXSIG,149,*76
228.951,607,$OXSIG,148,*77
229.002,608,$GPGGA,194057.00,6027.78224,N,00519.75550,E,1,08,1.06,139.9,M,43.8,M,,*57
229.553,609,$OXSIG,159,*77
230.102,610,$GPGGA,194058.00,6027.78234,N,00519.75557,E,1,09,1.01,140.3,M,43.8,M,,*5C
230.155,611,$OXSIG,157,*79
230.759,612,$OXSIG,158,*76
231.049,613,$GPGGA,194059.00,6027.78243,N,00519.75552,E,1,09,1.06,140.8,M,43.8,M,,*54
231.360,614,$OXSIG,183,*70
231.964,615,$OXSIG,143,*7C
232.010,616,$GPGGA,194100.00,6027.78253,N,00519.75553,E,1,09,1.06,141.3,M,43.8,M,,*53
232.566,617,$OXSIG,150,*7E
233.097,618,$GPGGA,194101.00,6027.78264,N,00519.75552,E,1,09,1.06,141.9,M,43.8,M,,*5D
233.167,619,$OXSIG,146,*79
233.771,620,$OXSIG,148,*77
234.034,621,$GPGGA,194102.00,6027.78277,N,00519.75548,E,1,09,1.06,142.6,M,43.8,M,,*5B
234.373,622,$OXSIG,150,*7E
234.974,623,$OXSIG,146,*79
235.017,624,$GPGGA,194103.00,6027.78284,N,00519.75543,E,1,09,1.06,142.6,M,43.8,M,,*5D
235.575,625,$OXSIG,153,*7D
236.112,626,$GPGGA,194104.00,6027.78295,N,00519.75529,E,1,11,0.82,143.0,M,43.8,M,,*55
236.176,627,$OXSIG,149,*76
236.777,628,$OXSIG,191,*73
237.076,629,$GPGGA,194105.00,6027.78304,N,00519.75525,E,1,11,0.82,143.5,M,43.8,M,,*54
237.379,630,$OXSIG,145,*7A
237.981,631,$OXSIG,146,*79
238.024,632,$GPGGA,194106.00,6027.78305,N,00519.75532,E,1,11,0.77,143.8,M,43.8,M,,*57
238.582,633,$OXSIG,146,*79
239.102,634,$GPGGA,194107.00,6027.78311,N,00519.75547,E,1,11,0.77,144.0,M,43.8,M,,*5E
239.187,635,$OXSIG,151,*7F
239.788,636,$OXSIG,147,*78
240.033,637,$GPGGA,194108.00,6027.78316,N,00519.75546,E,1,11,0.77,144.3,M,43.8,M,,*54
240.391,638,$OXSIG,147,*78
240.992,639,$OXSIG,147,*78
241.031,640,$GPGGA,194109.00,6027.78330,N,00519.75564,E,1,11,0.77,144.6,M,43.8,M,,*54
241.595,641,$OXSIG,156,*78
242.112,642,$GPGGA,194110.00,6027.78334,N,00519.75555,E,1,11,0.77,145.1,M,43.8,M,,*5C
242.196,643,$OXSIG,184,*77
242.800,644,$OXSIG,147,*78
243.031,645,$GPGGA,194111.00,6027.78344,N,00519.75557,E,1,11,0.77,145.7,M,43.8,M,,*5E
243.401,646,$OXSIG,149,*76
244.002,647,$OXSIG,142,*7D
244.038,648,$GPGGA,194112.00,6027.78362,N,00519.75563,E,1,11,0.82,146.7,M,43.8,M,,*57
244.605,649,$OXSIG,149,*76
245.105,650,$GPGGA,194113.00,6027.78374,N,00519.75577,E,1,11,0.82,146.8,M,43.8,M,,*5B
245.209,651,$OXSIG,153,*7D
245.810,652,$OXSIG,144,*7B
246.026,653,$GPGGA,194114.00,6027.78381,N,00519.75582,E,1,11,0.82,147.4,M,43.8,M,,*51
246.418,654,$OXSIG,146,*79
247.021,655,$OXSIG,143,*7C
247.050,656,$GPGGA,194115.00,6027.78387,N,00519.75590,E,1,11,0.82,147.6,M,43.8,M,,*57
247.623,657,$OXSIG,194,*76
248.131,658,$GPGGA,194116.00,6027.78397,N,00519.75591,E,1,10,0.82,147.9,M,43.8,M,,*5A
248.228,659,$OXSIG,167,*7A
248.830,660,$OXSIG,147,*78
249.015,661,$GPGGA,194117.00,6027.78410,N,00519.75596,E,1,11,0.82,148.6,M,43.8,M,,*55
249.431,662,$OXSIG,141,*7E
250.032,663,$OXSIG,145,*7A
250.057,664,$GPGGA,194118.00,6027.78424,N,00519.75608,E,1,11,0.82,149.1,M,43.8,M,,*5F
250.634,665,$OXSIG,150,*7E
251.104,666,$GPGGA,194119.00,6027.78432,N,00519.75607,E,1,11,0.82,149.4,M,43.8,M,,*53
251.235,667,$OXSIG,149,*76
251.837,668,$OXSIG,152,*7C
252.006,669,$GPGGA,194120.00,6027.78437,N,00519.75598,E,1,11,0.82,150.0,M,43.8,M,,*55
252.438,670,$OXSIG,146,*79
253.042,671,$OXSIG,142,*7D
253.065,672,$GPGGA,194121.00,6027.78442,N,00519.75605,E,1,10,0.82,150.3,M,43.8,M,,*53
253.643,673,$OXSIG,150,*7E
254.101,674,$GPGGA,194122.00,6027.78446,N,00519.75609,E,1,10,0.82,150.5,M,43.8,M,,*5E
254.245,675,$OXSIG,144,*7B
254.847,676,$OXSIG,144,*7B
254.999,677,$GPGGA,194123.00,6027.78453,N,00519.75608,E,1,10,0.82,150.7,M,43.8,M,,*58
255.448,678,$OXSIG,154,*7A
256.055,679,$OXSIG,148,*77
256.103,680,$GPGGA,194124.00,6027.78458,N,00519.75610,E,1,10,0.82,151.0,M,43.8,M,,*5B
256.657,681,$OXSIG,144,*7B
257.105,682,$GPGGA,194125.00,6027.78454,N,00519.75607,E,1,10,0.82,151.1,M,43.8,M,,*51
257.261,683,$OXSIG,145,*7A
257.864,684,$OXSIG,152,*7C
257.989,685,$GPGGA,194126.00,6027.78452,N,00519.75605,E,1,10,0.82,151.1,M,43.8,M,,*56
258.468,686,$OXSIG,154,*7A
259.072,687,$OXSIG,199,*7B
259.081,688,$GPGGA,194127.00,6027.78454,N,00519.75607,E,1,10,0.82,151.2,M,43.8,M,,*50
259.672,689,$OXSIG,154,*7A
260.102,690,$GPGGA,194128.00,6027.78458,N,00519.75608,E,1,10,0.82,151.3,M,43.8,M,,*5D
260.274,691,$OXSIG,154,*7A
260.875,692,$OXSIG,156,*78
260.975,693,$GPGGA,194129.00,6027.78469,N,00519.75596,E,1,11,0.82,151.5,M,43.8,M,,*5D
261.478,694,$OXSIG,160,*7D
262.080,695,$OXSIG,155,*7B
262.095,696,$GPGGA,194130.00,6027.78545,N,00519.75550,E,1,11,0.82,152.2,M,43.8,M,,*54
262.681,697,$OXSIG,158,*76
263.122,698,$GPGGA,194131.00,6027.78643,N,00519.75489,E,1,10,0.82,152.1,M,43.8,M,,*57
263.285,699,$OXSIG,152,*7C
263.890,700,$OXSIG,165,*78
263.986,701,$GPGGA,194132.00,6027.78736,N,00519.75384,E,1,10,0.82,152.0,M,43.8,M,,*5C
264.491,702,$OXSIG,203,*7B
265.094,703,$OXSIG,155,*7B
265.104,704,$GPGGA,194133.00,6027.78821,N,00519.75248,E,1,10,0.89,152.1,M,43.8,M,,*5F
265.697,705,$OXSIG,149,*76
266.122,706,$GPGGA,194134.00,6027.78893,N,00519.75097,E,1,11,0.89,152.3,M,43.8,M,,*52
266.299,707,$OXSIG,149,*76
266.900,708,$OXSIG,144,*7B
266.987,709,$GPGGA,194135.00,6027.78944,N,00519.74941,E,1,11,0.82,152.7,M,43.8,M,,*54
267.501,710,$OXSIG,143,*7C
268.106,711,$OXSIG,145,*7A
268.112,712,$GPGGA,194136.00,6027.78975,N,00519.74794,E,1,11,0.82,153.0,M,43.8,M,,*55
268.707,713,$OXSIG,144,*7B
269.122,714,$GPGGA,194137.00,6027.78973,N,00519.74625,E,1,11,0.82,153.2,M,43.8,M,,*5B
269.308,715,$OXSIG,173,*7F
269.915,716,$OXSIG,150,*7E
269.988,717,$GPGGA,194138.00,6027.78944,N,00519.74434,E,1,10,0.82,153.2,M,43.8,M,,*53
270.516,718,$OXSIG,155,*7B
271.117,719,$OXSIG,155,*7B
271.119,720,$GPGGA,194139.00,6027.78888,N,00519.74199,E,1,11,0.82,153.3,M,43.8,M,,*51
271.718,721,$OXSIG,152,*7C
272.114,722,$GPGGA,194140.00,6027.78800,N,00519.73971,E,1,11,0.77,153.1,M,43.8,M,,*5E
272.320,723,$OXSIG,150,*7E
272.921,724,$OXSIG,157,*79
272.996,725,$GPGGA,194141.00,6027.78693,N,00519.73738,E,1,11,0.77,152.8,M,43.8,M,,*50
273.522,726,$OXSIG,167,*7A
274.125,727,$GPGGA,194142.00,6027.78579,N,00519.73518,E,1,11,0.77,152.4,M,43.8,M,,*58
274.127,728,$OXSIG,153,*7D
274.727,729,$OXSIG,201,*79
275.122,730,$GPGGA,194143.00,6027.78460,N,00519.73282,E,1,11,0.77,152.3,M,43.8,M,,*53
275.338,731,$OXSIG,154,*7A
275.940,732,$OXSIG,152,*7C
276.007,733,$GPGGA,194144.00,6027.78336,N,00519.73078,E,1,11,0.77,153.0,M,43.8,M,,*55
276.544,734,$OXSIG,155,*7B
277.125,735,$GPGGA,194145.00,6027.78204,N,00519.72915,E,1,11,0.77,152.8,M,43.8,M,,*5E
277.145,736,$OXSIG,154,*7A
277.746,737,$OXSIG,157,*79
278.095,738,$GPGGA,194146.00,6027.78075,N,00519.72738,E,1,11,0.77,152.9,M,43.8,M,,*59
278.348,739,$OXSIG,155,*7B
278.949,740,$OXSIG,167,*7A
279.014,741,$GPGGA,194147.00,6027.77945,N,00519.72573,E,1,11,0.77,153.2,M,43.8,M,,*5A
279.553,742,$OXSIG,161,*7C
280.131,743,$GPGGA,194148.00,6027.77800,N,00519.72425,E,1,11,0.77,153.3,M,43.8,M,,*56
280.154,744,$OXSIG,199,*7B
280.755,745,$OXSIG,158,*76
281.087,746,$GPGGA,194149.00,6027.77655,N,00519.72268,E,1,11,0.77,153.3,M,43.8,M,,*56
281.356,747,$OXSIG,167,*7A
281.957,748,$OXSIG,151,*7F
282.019,749,$GPGGA,194150.00,6027.77516,N,00519.72097,E,1,11,0.77,153.7,M,43.8,M,,*5C
282.561,750,$OXSIG,157,*79
283.126,751,$GPGGA,194151.00,6027.77391,N,00519.71912,E,1,11,0.77,154.7,M,43.8,M,,*54
283.163,752,$OXSIG,155,*7B
283.765,753,$OXSIG,153,*7D
284.082,754,$GPGGA,194152.00,6027.77257,N,00519.71742,E,1,11,0.77,155.3,M,43.8,M,,*52
284.368,755,$OXSIG,153,*7D
284.971,756,$OXSIG,151,*7F
285.027,757,$GPGGA,194153.00,6027.77114,N,00519.71566,E,1,11,0.83,155.5,M,43.8,M,,*5E
285.572,758,$OXSIG,196,*74
286.150,759,$GPGGA,194154.00,6027.76979,N,00519.71375,E,1,11,0.77,155.6,M,43.8,M,,*57
286.173,760,$OXSIG,156,*78
286.780,761,$OXSIG,156,*78
287.068,762,$GPGGA,194155.00,6027.76847,N,00519.71186,E,1,11,0.77,155.6,M,43.8,M,,*54
287.381,763,$OXSIG,157,*79
287.983,764,$OXSIG,158,*76
288.034,765,$GPGGA,194156.00,6027.76725,N,00519.70971,E,1,11,0.77,155.5,M,43.8,M,,*5E
288.584,766,$OXSIG,151,*7F
289.128,767,$GPGGA,194157.00,6027.76609,N,00519.70764,E,1,11,0.77,155.5,M,43.8,M,,*5A
289.187,768,$OXSIG,148,*77
289.789,769,$OXSIG,157,*79
290.065,770,$GPGGA,194158.00,6027.76521,N,00519.70499,E,1,11,0.77,155.5,M,43.8,M,,*5D
290.390,771,$OXSIG,157,*79
290.992,772,$OXSIG,204,*7C
291.042,773,$GPGGA,194159.00,6027.76477,N,00519.70134,E,1,11,0.83,155.2,M,43.8,M,,*50
291.593,774,$OXSIG,160,*7D
292.132,775,$GPGGA,194200.00,6027.76446,N,00519.69814,E,1,11,0.77,155.2,M,43.8,M,,*55
292.193,776,$OXSIG,154,*7A
292.794,777,$OXSIG,162,*7F
293.058,778,$GPGGA,194201.00,6027.76456,N,00519.69475,E,1,11,0.77,155.3,M,43.8,M,,*5F
293.400,779,$OXSIG,164,*79
294.003,780,$OXSIG,168,*75
294.047,781,$GPGGA,194202.00,6027.76495,N,00519.69198,E,1,11,0.77,155.4,M,43.8,M,,*52
294.604,782,$OXSIG,164,*79
295.135,783,$GPGGA,194203.00,6027.76578,N,00519.68924,E,1,11,0.77,155.5,M,43.8,M,,*5E
295.205,784,$OXSIG,160,*7D
295.806,785,$OXSIG,163,*7E
296.072,786,$GPGGA,194204.00,6027.76703,N,00519.68722,E,1,11,0.77,155.5,M,43.8,M,,*5F
296.411,787,$OXSIG,161,*7C
297.012,788,$OXSIG,174,*78
297.062,789,$GPGGA,194205.00,6027.76848,N,00519.68592,E,1,11,0.77,155.2,M,43.8,M,,*50
297.614,790,$OXSIG,170,*7C
298.126,791,$GPGGA,194206.00,6027.77015,N,00519.68557,E,1,11,0.77,155.1,M,43.8,M,,*58
298.218,792,$OXSIG,164,*79
298.821,793,$OXSIG,166,*7B
299.036,794,$GPGGA,194207.00,6027.77193,N,00519.68627,E,1,11,0.77,154.9,M,43.8,M,,*5B
299.422,795,$OXSIG,158,*76
300.026,796,$OXSIG,163,*7E
300.059,797,$GPGGA,194208.00,6027.77364,N,00519.68733,E,1,11,0.77,154.7,M,43.8,M,,*54
300.628,798,$OXSIG,161,*7C
301.122,799,$GPGGA,194209.00,6027.77538,N,00519.68875,E,1,11,0.77,154.5,M,43.8,M,,*55
301.232,800,$OXSIG,162,*7F
301.833,801,$OXSIG,163,*7E
302.041,802,$GPGGA,194210.00,6027.77716,N,00519.69057,E,1,11,0.77,154.7,M,43.8,M,,*58
302.438,803,$OXSIG,190,*72
303.043,804,$OXSIG,160,*7D
303.072,805,$GPGGA,194211.00,6027.77887,N,00519.69260,E,1,11,0.77,155.2,M,43.8,M,,*5C
303.644,806,$OXSIG,157,*79
304.118,807,$GPGGA,194212.00,6027.78053,N,00519.69485,E,1,11,0.77,155.0,M,43.8,M,,*5E
304.249,808,$OXSIG,165,*78
304.854,809,$OXSIG,166,*7B
305.014,810,$GPGGA,194213.00,6027.78207,N,00519.69748,E,1,11,0.77,155.2,M,43.8,M,,*5C
305.458,811,$OXSIG,161,*7C
306.059,812,$OXSIG,157,*79
306.081,813,$GPGGA,194214.00,6027.78353,N,00519.70027,E,1,11,0.82,155.1,M,43.8,M,,*54
306.661,814,$OXSIG,157,*79
307.124,815,$GPGGA,194215.00,6027.78488,N,00519.70317,E,1,11,0.77,155.3,M,43.8,M,,*5C
307.265,816,$OXSIG,161,*7C
307.867,817,$OXSIG,210,*79
308.018,818,$GPGGA,194216.00,6027.78604,N,00519.70628,E,1,11,0.77,155.5,M,43.8,M,,*56
308.469,819,$OXSIG,170,*7C
309.072,820,$OXSIG,162,*7F
309.089,821,$GPGGA,194217.00,6027.78706,N,00519.70961,E,1,11,0.77,155.6,M,43.8,M,,*55
309.673,822,$OXSIG,155,*7B
310.121,823,$GPGGA,194218.00,6027.78789,N,00519.71314,E,1,11,0.77,155.6,M,43.8,M,,*54
310.274,824,$OXSIG,156,*78
310.877,825,$OXSIG,163,*7E
310.995,826,$GPGGA,194219.00,6027.78858,N,00519.71677,E,1,11,0.77,155.5,M,43.8,M,,*55
311.481,827,$OXSIG,165,*78
312.084,828,$OXSIG,152,*7C
312.097,829,$GPGGA,194220.00,6027.78899,N,00519.72047,E,1,11,0.96,155.3,M,43.8,M,,*5D
312.685,830,$OXSIG,160,*7D
313.124,831,$GPGGA,194221.00,6027.78918,N,00519.72439,E,1,11,0.96,155.3,M,43.8,M,,*59
313.288,832,$OXSIG,198,*7A
313.890,833,$OXSIG,173,*7F
313.986,834,$GPGGA,194222.00,6027.78904,N,00519.72833,E,1,11,0.96,155.0,M,43.8,M,,*52
314.491,835,$OXSIG,159,*77
315.092,836,$OXSIG,162,*7F
315.103,837,$GPGGA,194223.00,6027.78869,N,00519.73216,E,1,11,0.77,154.7,M,43.8,M,,*5C
315.693,838,$OXSIG,162,*7F
316.120,839,$GPGGA,194224.00,6027.78837,N,00519.73590,E,1,11,0.77,154.7,M,43.8,M,,*59
316.295,840,$OXSIG,157,*79
316.897,841,$OXSIG,153,*7D
316.988,842,$GPGGA,194225.00,6027.78805,N,00519.73925,E,1,11,0.77,154.8,M,43.8,M,,*54
317.498,843,$OXSIG,183,*70
318.100,844,$OXSIG,164,*79
318.109,845,$GPGGA,194226.00,6027.78742,N,00519.74106,E,1,11,0.77,154.1,M,43.8,M,,*5C
318.701,846,$OXSIG,198,*7A
319.126,847,$GPGGA,194227.00,6027.78658,N,00519.74142,E,1,11,0.77,152.7,M,43.8,M,,*57
319.304,848,$OXSIG,153,*7D
319.905,849,$OXSIG,149,*76
319.977,850,$GPGGA,194228.00,6027.78638,N,00519.74141,E,1,11,0.77,152.4,M,43.8,M,,*5E
320.506,851,$OXSIG,150,*7E
321.105,852,$GPGGA,194229.00,6027.78612,N,00519.74119,E,1,11,0.77,152.2,M,43.8,M,,*5C
321.108,853,$OXSIG,152,*7C
321.709,854,$OXSIG,149,*76
322.114,855,$GPGGA,194230.00,6027.78559,N,00519.74054,E,1,11,0.77,152.1,M,43.8,M,,*53
322.310,856,$OXSIG,151,*7F
322.917,857,$OXSIG,155,*7B
322.990,858,$GPGGA,194231.00,6027.78441,N,00519.73970,E,1,11,0.77,151.7,M,43.8,M,,*57
323.518,859,$OXSIG,152,*7C
324.104,860,$GPGGA,194232.00,6027.78378,N,00519.73935,E,1,11,0.77,151.2,M,43.8,M,,*5D
324.119,861,$OXSIG,159,*77
324.723,862,$OXSIG,153,*7D
325.084,863,$GPGGA,194233.00,6027.78383,N,00519.73929,E,1,10,0.83,151.8,M,43.8,M,,*55
325.327,864,$OXSIG,149,*76
325.929,865,$OXSIG,146,*79
325.991,866,$GPGGA,194234.00,6027.78387,N,00519.73937,E,1,11,0.77,152.4,M,43.8,M,,*5C
326.530,867,$OXSIG,146,*79
327.105,868,$GPGGA,194235.00,6027.78398,N,00519.73944,E,1,10,0.83,152.9,M,43.8,M,,*50
327.135,869,$OXSIG,148,*77
327.736,870,$OXSIG,147,*78
328.078,871,$GPGGA,194236.00,6027.78412,N,00519.73950,E,1,11,0.83,153.3,M,43.8,M,,*59
328.341,872,$OXSIG,147,*78
328.942,873,$OXSIG,180,*73
329.001,874,$GPGGA,194237.00,6027.78426,N,00519.73943,E,1,11,0.83,153.6,M,43.8,M,,*58
329.545,875,$OXSIG,154,*7A
330.103,876,$GPGGA,194238.00,6027.78440,N,00519.73949,E,1,11,0.83,153.9,M,43.8,M,,*52
330.151,877,$OXSIG,150,*7E
330.753,878,$OXSIG,144,*7B
331.075,879,$GPGGA,194239.00,6027.78444,N,00519.73947,E,1,11,0.77,154.3,M,43.8,M,,*5F
331.358,880,$OXSIG,149,*76
331.959,881,$OXSIG,150,*7E
332.012,882,$GPGGA,194240.00,6027.78430,N,00519.73924,E,1,11,0.83,154.9,M,43.8,M,,*56
332.561,883,$OXSIG,146,*79
333.128,884,$GPGGA,194241.00,6027.78392,N,00519.73881,E,1,11,0.83,155.2,M,43.8,M,,*5C
333.161,885,$OXSIG,150,*7E
333.763,886,$OXSIG,151,*7F
334.077,887,$GPGGA,194242.00,6027.78339,N,00519.73816,E,1,11,0.83,155.4,M,43.8,M,,*56
334.368,888,$OXSIG,212,*7B
334.969,889,$OXSIG,157,*79
335.022,890,$GPGGA,194243.00,6027.78312,N,00519.73787,E,1,11,0.83,155.5,M,43.8,M,,*58
335.570,891,$OXSIG,145,*7A
336.103,892,$GPGGA,194244.00,6027.78300,N,00519.73773,E,1,11,0.83,155.5,M,43.8,M,,*57
336.171,893,$OXSIG,148,*77
336.773,894,$OXSIG,148,*77
337.050,895,$GPGGA,194245.00,6027.78288,N,00519.73768,E,1,10,0.83,155.5,M,43.8,M,,*5C
337.378,896,$OXSIG,147,*78
337.979,897,$OXSIG,145,*7A
338.024,898,$GPGGA,194246.00,6027.78283,N,00519.73775,E,1,11,0.83,155.3,M,43.8,M,,*5F
338.580,899,$OXSIG,145,*7A
339.105,900,$GPGGA,194247.00,6027.78278,N,00519.73801,E,1,11,0.77,155.4,M,43.8,M,,*5A
339.182,901,$OXSIG,152,*7C
339.785,902,$OXSIG,143,*7C
340.043,903,$GPGGA,194248.00,6027.78282,N,00519.73781,E,1,11,0.77,155.2,M,43.8,M,,*51
340.388,904,$OXSIG,154,*7A
340.993,905,$OXSIG,145,*7A
341.031,906,$GPGGA,194249.00,6027.78296,N,00519.73718,E,1,11,0.83,154.9,M,43.8,M,,*54
341.594,907,$OXSIG,146,*79
342.106,908,$GPGGA,194250.00,6027.78302,N,00519.73697,E,1,11,0.77,155.0,M,43.8,M,,*55
342.201,909,$OXSIG,144,*7B
342.802,910,$OXSIG,150,*7E
343.035,911,$GPGGA,194251.00,6027.78318,N,00519.73693,E,1,11,0.80,155.1,M,43.8,M,,*52
343.408,912,$OXSIG,147,*78
344.011,913,$OXSIG,143,*7C
344.052,914,$GPGGA,194252.00,6027.78347,N,00519.73619,E,1,11,0.80,154.8,M,43.8,M,,*51
344.612,915,$OXSIG,150,*7E
345.132,916,$GPGGA,194253.00,6027.78378,N,00519.73540,E,1,11,0.80,154.8,M,43.8,M,,*53
345.213,917,$OXSIG,153,*7D
345.815,918,$OXSIG,196,*74
346.058,919,$GPGGA,194254.00,6027.78381,N,00519.73522,E,1,11,0.80,154.8,M,43.8,M,,*56
346.418,920,$OXSIG,150,*7E
347.019,921,$OXSIG,147,*78
347.062,922,$GPGGA,194255.00,6027.78373,N,00519.73534,E,1,11,0.82,154.9,M,43.8,M,,*5E
347.623,923,$OXSIG,151,*7F
348.104,924,$GPGGA,194256.00,6027.78368,N,00519.73538,E,1,11,0.82,154.9,M,43.8,M,,*5B
348.227,925,$OXSIG,157,*79
348.831,926,$OXSIG,157,*79
349.012,927,$GPGGA,194257.00,6027.78370,N,00519.73548,E,1,11,0.82,154.5,M,43.8,M,,*58
349.432,928,$OXSIG,160,*7D
350.036,929,$OXSIG,162,*7F
350.061,930,$GPGGA,194258.00,6027.78396,N,00519.73543,E,1,11,0.82,154.3,M,43.8,M,,*52
350.638,931,$OXSIG,152,*7C
351.107,932,$GPGGA,194259.00,6027.78442,N,00519.73529,E,1,11,0.77,154.9,M,43.8,M,,*51
351.239,933,$OXSIG,196,*74
351.841,934,$OXSIG,166,*7B
352.027,935,$GPGGA,194300.00,6027.78476,N,00519.73517,E,1,11,0.77,154.5,M,43.8,M,,*5A
352.441,936,$OXSIG,165,*78
353.042,937,$OXSIG,166,*7B
353.072,938,$GPGGA,194301.00,6027.78514,N,00519.73549,E,1,11,0.77,153.3,M,43.8,M,,*54
353.648,939,$OXSIG,168,*75
354.116,940,$GPGGA,194302.00,6027.78558,N,00519.73568,E,1,11,0.77,153.1,M,43.8,M,,*5E
354.249,941,$OXSIG,165,*78
354.854,942,$OXSIG,166,*7B
355.015,943,$GPGGA,194303.00,6027.78618,N,00519.73619,E,1,11,0.77,153.6,M,43.8,M,,*5A
355.458,944,$OXSIG,158,*76
356.059,945,$OXSIG,175,*79
356.087,946,$GPGGA,194304.00,6027.78654,N,00519.73641,E,1,11,0.77,153.5,M,43.8,M,,*5B
356.663,947,$OXSIG,208,*70
357.140,948,$GPGGA,194305.00,6027.78681,N,00519.73673,E,1,11,0.82,153.5,M,43.8,M,,*59
357.267,949,$OXSIG,162,*7F
357.872,950,$OXSIG,155,*7B
358.005,951,$GPGGA,194306.00,6027.78708,N,00519.73733,E,1,11,0.77,153.6,M,43.8,M,,*56
358.478,952,$OXSIG,152,*7C
359.081,953,$OXSIG,153,*7D
359.091,954,$GPGGA,194307.00,6027.78716,N,00519.73744,E,1,11,0.77,153.3,M,43.8,M,,*5D
359.683,955,$OXSIG,157,*79
360.101,956,$GPGGA,194308.00,6027.78721,N,00519.73752,E,1,11,0.77,153.3,M,43.8,M,,*51
360.284,957,$OXSIG,154,*7A
360.886,958,$OXSIG,153,*7D
360.977,959,$GPGGA,194309.00,6027.78720,N,00519.73774,E,1,11,0.77,153.4,M,43.8,M,,*52
361.487,960,$OXSIG,157,*79
362.089,961,$OXSIG,194,*76
362.098,962,$GPGGA,194310.00,6027.78716,N,00519.73815,E,1,11,0.77,153.3,M,43.8,M,,*50
362.690,963,$OXSIG,155,*7B
363.104,964,$GPGGA,194311.00,6027.78715,N,00519.73890,E,1,11,0.96,153.5,M,43.8,M,,*56
363.292,965,$OXSIG,154,*7A
363.896,966,$OXSIG,150,*7E
363.973,967,$GPGGA,194312.00,6027.78712,N,00519.73924,E,1,10,0.96,153.4,M,43.8,M,,*5C
364.496,968,$OXSIG,147,*78
365.097,969,$OXSIG,153,*7D
365.102,970,$GPGGA,194313.00,6027.78722,N,00519.73933,E,1,10,0.96,153.8,M,43.8,M,,*54
365.701,971,$OXSIG,155,*7B
366.107,972,$GPGGA,194314.00,6027.78723,N,00519.73937,E,1,11,0.96,153.8,M,43.8,M,,*57
366.302,973,$OXSIG,154,*7A
366.903,974,$OXSIG,155,*7B
366.981,975,$GPGGA,194315.00,6027.78723,N,00519.73940,E,1,11,0.96,153.7,M,43.8,M,,*59
367.505,976,$OXSIG,163,*7E
368.108,977,$OXSIG,160,*7D
368.116,978,$GPGGA,194316.00,6027.78729,N,00519.73941,E,1,10,0.96,153.8,M,43.8,M,,*5F
368.709,979,$OXSIG,159,*77
369.095,980,$GPGGA,194317.00,6027.78730,N,00519.73942,E,1,10,1.30,153.7,M,43.8,M,,*57
369.310,981,$OXSIG,153,*7D
369.915,982,$OXSIG,160,*7D
369.987,983,$GPGGA,194318.00,6027.78729,N,00519.73937,E,1,10,1.30,153.8,M,43.8,M,,*5D
370.516,984,$OXSIG,150,*7E
371.108,985,$GPGGA,194319.00,6027.78730,N,00519.73931,E,1,11,1.30,153.9,M,43.8,M,,*52
371.117,986,$OXSIG,162,*7F
371.719,987,$OXSIG,162,*7F
372.095,988,$GPGGA,194320.00,6027.78734,N,00519.73926,E,1,11,1.30,153.9,M,43.8,M,,*5A
372.321,989,$OXSIG,147,*78
372.922,990,$OXSIG,150,*7E
372.995,991,$GPGGA,194321.00,6027.78733,N,00519.73923,E,1,11,1.30,153.9,M,43.8,M,,*59
373.526,992,$OXSIG,194,*76
374.107,993,$GPGGA,194322.00,6027.78732,N,00519.73921,E,1,11,1.30,153.9,M,43.8,M,,*59
374.129,994,$OXSIG,159,*77
374.730,995,$OXSIG,157,*79
375.081,996,$GPGGA,194323.00,6027.78732,N,00519.73917,E,1,11,1.30,153.9,M,43.8,M,,*5D
375.331,997,$OXSIG,155,*7B
375.932,998,$OXSIG,155,*7B
375.998,999,$GPGGA,194324.00,6027.78730,N,00519.73910,E,1,11,1.30,153.8,M,43.8,M,,*5E
376.534,1000,$OXSIG,159,*77
377.136,1001,$OXSIG,156,*78
377.138,1002,$GPGGA,194325.00,6027.78726,N,00519.73907,E,1,11,1.30,153.7,M,43.8,M,,*51
377.737,1003,$OXSIG,157,*79
378.071,1004,$GPGGA,194326.00,6027.78723,N,00519.73905,E,1,10,1.30,153.6,M,43.8,M,,*55
378.338,1005,$OXSIG,155,*7B
378.939,1006,$OXSIG,195,*77
379.004,1007,$GPGGA,194327.00,6027.78717,N,00519.73903,E,1,10,1.30,153.5,M,43.8,M,,*56
379.543,1008,$OXSIG,155,*7B
380.107,1009,$GPGGA,194328.00,6027.78717,N,00519.73903,E,1,11,1.30,153.4,M,43.8,M,,*59
380.147,1010,$OXSIG,167,*7A
380.748,1011,$OXSIG,159,*77
381.072,1012,$GPGGA,194329.00,6027.78710,N,00519.73906,E,1,11,1.30,153.2,M,43.8,M,,*5C
381.349,1013,$OXSIG,159,*77
381.951,1014,$OXSIG,157,*79
382.008,1015,$GPGGA,194330.00,6027.78703,N,00519.73908,E,1,11,1.30,152.8,M,43.8,M,,*53
382.552,1016,$OXSIG,156,*78
383.108,1017,$GPGGA,194331.00,6027.78706,N,00519.73913,E,1,11,1.30,152.8,M,43.8,M,,*5D
383.155,1018,$OXSIG,154,*7A
383.756,1019,$OXSIG,149,*76
384.060,1020,$GPGGA,194332.00,6027.78705,N,00519.73915,E,1,11,1.30,152.5,M,43.8,M,,*56
384.358,1021,$OXSIG,174,*78
384.963,1022,$OXSIG,160,*7D
385.015,1023,$GPGGA,194333.00,6027.78696,N,00519.73915,E,1,11,1.30,152.1,M,43.8,M,,*58
385.565,1024,$OXSIG,157,*79
386.103,1025,$GPGGA,194334.00,6027.78694,N,00519.73916,E,1,11,1.30,152.1,M,43.8,M,,*5E
386.170,1026,$OXSIG,152,*7C
386.771,1027,$OXSIG,154,*7A
387.051,1028,$GPGGA,194335.00,6027.78688,N,00519.73918,E,1,11,1.30,152.0,M,43.8,M,,*5D
387.372,1029,$OXSIG,158,*76
387.976,1030,$OXSIG,166,*7B
388.026,1031,$GPGGA,194336.00,6027.78679,N,00519.73917,E,1,11,1.30,151.8,M,43.8,M,,*54
388.577,1032,$OXSIG,151,*7F
389.111,1033,$GPGGA,194337.00,6027.78684,N,00519.73919,E,1,11,1.30,151.8,M,43.8,M,,*59
389.178,1034,$OXSIG,189,*7A
389.779,1035,$OXSIG,158,*76
390.048,1036,$GPGGA,194338.00,6027.78683,N,00519.73915,E,1,11,1.30,151.7,M,43.8,M,,*52
390.380,1037,$OXSIG,156,*78
390.982,1038,$OXSIG,155,*7B
391.029,1039,$GPGGA,194339.00,6027.78685,N,00519.73916,E,1,11,1.30,151.6,M,43.8,M,,*57
391.583,1040,$OXSIG,161,*7C
392.107,1041,$GPGGA,194340.00,6027.78689,N,00519.73917,E,1,11,1.30,151.9,M,43.8,M,,*5B
392.184,1042,$OXSIG,156,*78
392.786,1043,$OXSIG,161,*7C
393.038,1044,$GPGGA,194341.00,6027.78697,N,00519.73922,E,1,11,1.30,152.1,M,43.8,M,,*58
393.388,1045,$OXSIG,171,*7D
393.989,1046,$OXSIG,161,*7C
394.034,1047,$GPGGA,194342.00,6027.78694,N,00519.73924,E,1,11,1.30,151.9,M,43.8,M,,*55
394.592,1048,$OXSIG,209,*71
395.118,1049,$GPGGA,194343.00,6027.78690,N,00519.73922,E,1,11,1.30,151.8,M,43.8,M,,*57
395.193,1050,$OXSIG,159,*77
395.795,1051,$OXSIG,154,*7A
396.040,1052,$GPGGA,194344.00,6027.78698,N,00519.73919,E,1,11,0.77,151.9,M,43.8,M,,*53
396.398,1053,$OXSIG,151,*7F
396.999,1054,$OXSIG,157,*79
397.042,1055,$GPGGA,194345.00,6027.78698,N,00519.73913,E,1,11,0.77,151.9,M,43.8,M,,*58
397.600,1056,$OXSIG,151,*7F
398.112,1057,$GPGGA,194346.00,6027.78695,N,00519.73911,E,1,11,0.77,151.8,M,43.8,M,,*55
398.205,1058,$OXSIG,151,*7F
398.810,1059,$OXSIG,153,*7D
399.025,1060,$GPGGA,194347.00,6027.78689,N,00519.73913,E,1,10,0.96,151.9,M,43.8,M,,*54
399.411,1061,$OXSIG,149,*76
400.012,1062,$OXSIG,188,*7B
400.050,1063,$GPGGA,194348.00,6027.78688,N,00519.73910,E,1,10,0.96,152.0,M,43.8,M,,*53
400.614,1064,$OXSIG,154,*7A
401.100,1065,$GPGGA,194349.00,6027.78686,N,00519.73906,E,1,10,0.96,151.9,M,43.8,M,,*51
401.215,1066,$OXSIG,152,*7C
401.816,1067,$OXSIG,160,*7D
402.019,1068,$GPGGA,194350.00,6027.78685,N,00519.73898,E,1,09,1.29,151.9,M,43.8,M,,*51
402.418,1069,$OXSIG,156,*78
403.020,1070,$OXSIG,155,*7B
403.052,1071,$GPGGA,194351.00,6027.78685,N,00519.73896,E,1,10,1.29,152.0,M,43.8,M,,*5C
403.621,1072,$OXSIG,152,*7C
404.108,1073,$GPGGA,194352.00,6027.78681,N,00519.73893,E,1,10,1.29,152.0,M,43.8,M,,*5E
404.222,1074,$OXSIG,157,*79
404.824,1075,$OXSIG,158,*76
405.014,1076,$GPGGA,194353.00,6027.78676,N,00519.73893,E,1,11,1.29,152.0,M,43.8,M,,*56
405.428,1077,$OXSIG,201,*79
406.029,1078,$OXSIG,171,*7D
406.069,1079,$GPGGA,194354.00,6027.78674,N,00519.73893,E,1,11,1.29,152.1,M,43.8,M,,*52
406.630,1080,$OXSIG,157,*79
407.104,1081,$GPGGA,194355.00,6027.78668,N,00519.73890,E,1,11,1.29,152.0,M,43.8,M,,*5C
407.234,1082,$OXSIG,156,*78
407.839,1083,$OXSIG,153,*7D
408.002,1084,$GPGGA,194356.00,6027.78665,N,00519.73888,E,1,11,1.29,151.9,M,43.8,M,,*51
408.442,1085,$OXSIG,160,*7D
409.043,1086,$OXSIG,156,*78
409.071,1087,$GPGGA,194357.00,6027.78667,N,00519.73896,E,1,11,1.29,152.1,M,43.8,M,,*56
409.646,1088,$OXSIG,156,*78
410.101,1089,$GPGGA,194358.00,6027.78676,N,00519.73898,E,1,11,1.29,152.3,M,43.8,M,,*55
410.247,1090,$OXSIG,157,*79
410.849,1091,$OXSIG,158,*76
411.001,1092,$GPGGA,194359.00,6027.78685,N,00519.73899,E,1,11,0.82,152.4,M,43.8,M,,*5E
411.458,1093,$OXSIG,181,*72
412.061,1094,$OXSIG,149,*76
412.077,1095,$GPGGA,194400.00,6027.78680,N,00519.73903,E,1,10,1.29,152.4,M,43.8,M,,*53
412.663,1096,$OXSIG,146,*79
413.105,1097,$GPGGA,194401.00,6027.78669,N,00519.73908,E,1,11,1.29,151.8,M,43.8,M,,*50
413.264,1098,$OXSIG,156,*78
413.868,1099,$OXSIG,157,*79
414.009,1100,$GPGGA,194402.00,6027.78661,N,00519.73909,E,1,11,1.29,150.5,M,43.8,M,,*56
414.469,1101,$OXSIG,213,*7A
415.078,1102,$OXSIG,180,*73
415.101,1103,$GPGGA,194403.00,6027.78697,N,00519.73912,E,1,11,1.29,148.4,M,43.8,M,,*5C
415.679,1104,$OXSIG,156,*78
416.134,1105,$GPGGA,194404.00,6027.78692,N,00519.73912,E,1,11,1.29,145.3,M,43.8,M,,*54
416.282,1106,$OXSIG,233,*78
416.889,1107,$OXSIG,226,*7C
417.004,1108,$GPGGA,194405.00,6027.78681,N,00519.73918,E,1,10,1.29,142.3,M,43.8,M,,*5B
417.490,1109,$OXSIG,170,*7C
418.093,1110,$OXSIG,154,*7A
418.101,1111,$GPGGA,194406.00,6027.78674,N,00519.73918,E,1,11,1.29,139.2,M,43.8,M,,*5E
418.694,1112,$OXSIG,154,*7A
419.104,1113,$GPGGA,194407.00,6027.78664,N,00519.73917,E,1,11,1.29,136.0,M,43.8,M,,*5C
419.296,1114,$OXSIG,156,*78
419.898,1115,$OXSIG,184,*77
419.977,1116,$GPGGA,194408.00,6027.78658,N,00519.73921,E,1,11,1.29,133.0,M,43.8,M,,*5C
420.499,1117,$OXSIG,158,*76
421.103,1118,$OXSIG,160,*7D
421.107,1119,$GPGGA,194409.00,6027.78659,N,00519.73923,E,1,11,1.29,129.9,M,43.8,M,,*5C
421.703,1120,$OXSIG,158,*76
422.110,1121,$GPGGA,194410.00,6027.78657,N,00519.73923,E,1,11,1.29,126.9,M,43.8,M,,*55
422.305,1122,$OXSIG,192,*70
422.906,1123,$OXSIG,166,*7B
422.977,1124,$GPGGA,194411.00,6027.78658,N,00519.73928,E,1,11,1.29,123.9,M,43.8,M,,*55
423.510,1125,$OXSIG,151,*7F
424.113,1126,$OXSIG,161,*7C
424.115,1127,$GPGGA,194412.00,6027.78660,N,00519.73930,E,1,11,0.82,120.9,M,43.8,M,,*57
424.715,1128,$OXSIG,152,*7C
425.092,1129,$GPGGA,194413.00,6027.78663,N,00519.73935,E,1,11,0.82,118.0,M,43.8,M,,*52
425.316,1130,$OXSIG,180,*73
425.929,1131,$OXSIG,217,*7E
425.992,1132,$GPGGA,194414.00,6027.78655,N,00519.73938,E,1,11,0.82,115.3,M,43.8,M,,*53
426.530,1133,$OXSIG,165,*78
427.131,1134,$OXSIG,146,*79
427.135,1135,$GPGGA,194415.00,6027.78688,N,00519.73940,E,1,11,0.82,116.1,M,43.8,M,,*5C
427.738,1136,$OXSIG,197,*75
428.111,1137,$GPGGA,194416.00,6027.78679,N,00519.73943,E,1,11,1.29,114.3,M,43.8,M,,*52
428.340,1138,$OXSIG,150,*7E
428.941,1139,$OXSIG,144,*7B
429.001,1140,$GPGGA,194417.00,6027.78681,N,00519.73945,E,1,11,1.29,112.5,M,43.8,M,,*52
429.542,1141,$OXSIG,155,*7B
430.117,1142,$GPGGA,194418.00,6027.78679,N,00519.73944,E,1,11,1.29,110.9,M,43.8,M,,*55
430.146,1143,$OXSIG,179,*75
430.747,1144,$OXSIG,142,*7D
431.098,1145,$GPGGA,194419.00,6027.78690,N,00519.73953,E,1,11,0.82,110.7,M,43.8,M,,*5B
431.349,1146,$OXSIG,143,*7C
431.950,1147,$OXSIG,147,*78
432.014,1148,$GPGGA,194420.00,6027.78679,N,00519.73961,E,1,11,0.82,110.3,M,43.8,M,,*53
432.553,1149,$OXSIG,147,*78
433.122,1150,$GPGGA,194421.00,6027.78689,N,00519.73960,E,1,11,0.82,110.4,M,43.8,M,,*5B
433.154,1151,$OXSIG,175,*79
433.755,1152,$OXSIG,157,*79
434.068,1153,$GPGGA,194422.00,6027.78695,N,00519.73960,E,1,11,0.82,109.9,M,43.8,M,,*50
434.358,1154,$OXSIG,140,*7F
434.959,1155,$OXSIG,150,*7E
435.017,1156,$GPGGA,194423.00,6027.78704,N,00519.73961,E,1,11,0.82,108.5,M,43.8,M,,*54
435.561,1157,$OXSIG,151,*7F
436.121,1158,$GPGGA,194424.00,6027.78704,N,00519.73964,E,1,11,0.82,106.9,M,43.8,M,,*54
436.162,1159,$OXSIG,147,*78
436.763,1160,$OXSIG,146,*79
437.066,1161,$GPGGA,194425.00,6027.78701,N,00519.73965,E,1,11,0.82,105.0,M,43.8,M,,*5B
437.370,1162,$OXSIG,141,*7E
437.975,1163,$OXSIG,148,*77
438.021,1164,$GPGGA,194426.00,6027.78690,N,00519.73963,E,1,11,0.77,103.0,M,43.8,M,,*5B
438.577,1165,$OXSIG,149,*76
439.151,1166,$GPGGA,194427.00,6027.78681,N,00519.73965,E,1,11,0.77,101.2,M,43.8,M,,*5C
439.178,1167,$OXSIG,159,*77
439.779,1168,$OXSIG,165,*78
440.074,1169,$GPGGA,194428.00,6027.78685,N,00519.73968,E,1,11,0.82,100.2,M,43.8,M,,*51
440.380,1170,$OXSIG,164,*79
440.985,1171,$OXSIG,165,*78
441.035,1172,$GPGGA,194429.00,6027.78680,N,00519.73969,E,1,11,0.82,99.6,M,43.8,M,,*61
441.586,1173,$OXSIG,160,*7D
442.135,1174,$GPGGA,194430.00,6027.78658,N,00519.73966,E,1,11,0.82,99.0,M,43.8,M,,*65
442.186,1175,$OXSIG,154,*7A
442.788,1176,$OXSIG,156,*78
443.047,1177,$GPGGA,194431.00,6027.78664,N,00519.73971,E,1,11,0.77,99.0,M,43.8,M,,*67
443.389,1178,$OXSIG,154,*7A
443.991,1179,$OXSIG,162,*7F
444.037,1180,$GPGGA,194432.00,6027.78646,N,00519.73980,E,1,11,0.77,99.3,M,43.8,M,,*69
444.592,1181,$OXSIG,203,*7B
445.118,1182,$GPGGA,194433.00,6027.78627,N,00519.73969,E,1,11,0.82,99.4,M,43.8,M,,*65
445.193,1183,$OXSIG,152,*7C
445.795,1184,$OXSIG,155,*7B
446.031,1185,$GPGGA,194434.00,6027.78627,N,00519.73960,E,1,11,0.96,99.4,M,43.8,M,,*6E
446.400,1186,$OXSIG,156,*78
447.004,1187,$OXSIG,159,*77
447.047,1188,$GPGGA,194435.00,6027.78614,N,00519.73966,E,1,11,0.77,99.8,M,43.8,M,,*6A
447.605,1189,$OXSIG,151,*7F
448.133,1190,$GPGGA,194436.00,6027.78552,N,00519.73972,E,1,11,0.77,99.7,M,43.8,M,,*62
448.206,1191,$OXSIG,160,*7D
448.810,1192,$OXSIG,188,*7B
449.048,1193,$GPGGA,194437.00,6027.78495,N,00519.73981,E,1,11,0.77,99.4,M,43.8,M,,*66
449.418,1194,$OXSIG,160,*7D
450.020,1195,$OXSIG,153,*7D
450.055,1196,$GPGGA,194438.00,6027.78478,N,00519.73957,E,1,11,0.77,99.5,M,43.8,M,,*60
450.621,1197,$OXSIG,150,*7E
451.115,1198,$GPGGA,194439.00,6027.78458,N,00519.73937,E,1,11,0.83,98.8,M,43.8,M,,*62
451.222,1199,$OXSIG,154,*7A
451.827,1200,$OXSIG,156,*78
452.025,1201,$GPGGA,194440.00,6027.78460,N,00519.73933,E,1,11,0.77,98.6,M,43.8,M,,*66
452.428,1202,$OXSIG,149,*76
453.030,1203,$OXSIG,144,*7B
453.056,1204,$GPGGA,194441.00,6027.78460,N,00519.73916,E,1,11,0.77,98.0,M,43.8,M,,*66
453.631,1205,$OXSIG,148,*77
454.116,1206,$GPGGA,194442.00,6027.78460,N,00519.73896,E,1,11,0.77,97.1,M,43.8,M,,*62
454.232,1207,$OXSIG,144,*7B
454.839,1208,$OXSIG,174,*78
455.008,1209,$GPGGA,194443.00,6027.78461,N,00519.73859,E,1,11,0.77,96.4,M,43.8,M,,*65
455.439,1210,$OXSIG,151,*7F
456.040,1211,$OXSIG,151,*7F
456.064,1212,$GPGGA,194444.00,6027.78461,N,00519.73851,E,1,11,0.77,95.6,M,43.8,M,,*6B
456.641,1213,$OXSIG,143,*7C
457.115,1214,$GPGGA,194445.00,6027.78460,N,00519.73842,E,1,11,0.77,94.7,M,43.8,M,,*69
457.243,1215,$OXSIG,147,*78
457.844,1216,$OXSIG,144,*7B
458.012,1217,$GPGGA,194446.00,6027.78467,N,00519.73835,E,1,11,0.77,93.5,M,43.8,M,,*68
458.448,1218,$OXSIG,151,*7F
459.049,1219,$OXSIG,169,*74
459.069,1220,$GPGGA,194447.00,6027.78466,N,00519.73831,E,1,11,0.77,92.4,M,43.8,M,,*6C
459.652,1221,$OXSIG,169,*74
460.120,1222,$GPGGA,194448.00,6027.78469,N,00519.73839,E,1,11,0.77,91.6,M,43.8,M,,*65
460.253,1223,$OXSIG,191,*73
460.855,1224,$OXSIG,159,*77
460.998,1225,$GPGGA,194449.00,6027.78471,N,00519.73858,E,1,11,0.77,90.8,M,43.8,M,,*65
